{
  "table": [{
    "title": "東京大神宮",
    "position": {
      "lat": 35.699977,
      "lng": 139.746724
    }
  }, {
    "title": "台所町跡",
    "position": {
      "lat": 35.698608,
      "lng": 139.75009
    }
  }, {
    "title": "靖國神社",
    "position": {
      "lat": 35.694363,
      "lng": 139.743849
    }
  }, {
    "title": "北之丸公園",
    "position": {
      "lat": 35.691654,
      "lng": 139.749978
    }
  }, {
    "title": "科學技術館",
    "position": {
      "lat": 35.691877,
      "lng": 139.753123
    }
  }, {
    "title": "近代美術館",
    "position": {
      "lat": 35.690831,
      "lng": 139.754664
    }
  }, {
    "title": "近代美術館工藝館",
    "position": {
      "lat": 35.689948,
      "lng": 139.750391
    }
  }, {
    "title": "清水門",
    "position": {
      "lat": 35.693038,
      "lng": 139.752751
    }
  }, {
    "title": "田安門",
    "position": {
      "lat": 35.694318,
      "lng": 139.749305
    }
  }, {
    "title": "日本武道館",
    "position": {
      "lat": 35.693622,
      "lng": 139.749842
    }
  }, {
    "title": "千鳥淵綠道",
    "position": {
      "lat": 35.694388,
      "lng": 139.747825
    }
  }, {
    "title": "大村益次郎像",
    "position": {
      "lat": 35.695056,
      "lng": 139.74636
    }
  }, {
    "title": "千鳥淵公園",
    "position": {
      "lat": 35.689893,
      "lng": 139.748599
    }
  }, {
    "title": "半藏門",
    "position": {
      "lat": 35.686477,
      "lng": 139.741389
    }
  }, {
    "title": "清水谷公園",
    "position": {
      "lat": 35.681645,
      "lng": 139.735858
    }
  }, {
    "title": "國立劇場",
    "position": {
      "lat": 35.681842,
      "lng": 139.743308
    }
  }, {
    "title": "江戶城跡石碑",
    "position": {
      "lat": 35.681868,
      "lng": 139.745046
    }
  }, {
    "title": "憲政紀念館",
    "position": {
      "lat": 35.678339,
      "lng": 139.747092
    }
  }, {
    "title": "日比谷公園",
    "position": {
      "lat": 35.674517,
      "lng": 139.756006
    }
  }, {
    "title": "日比谷公會堂",
    "position": {
      "lat": 35.671907,
      "lng": 139.755695
    }
  }, {
    "title": "有樂町",
    "position": {
      "lat": 35.675215,
      "lng": 139.76282
    }
  }, {
    "title": "帝國劇場",
    "position": {
      "lat": 35.676878,
      "lng": 139.760704
    }
  }, {
    "title": "皇居外苑",
    "position": {
      "lat": 35.677268,
      "lng": 139.758615
    }
  }, {
    "title": "KITTE",
    "position": {
      "lat": 35.68007,
      "lng": 139.764834
    }
  }, {
    "title": "Marunouchi Brick Square",
    "position": {
      "lat": 35.679235,
      "lng": 139.763079
    }
  }, {
    "title": "二重橋",
    "position": {
      "lat": 35.680496,
      "lng": 139.753573
    }
  }, {
    "title": "皇居",
    "position": {
      "lat": 35.685445,
      "lng": 139.752799
    }
  }, {
    "title": "桔梗門",
    "position": {
      "lat": 35.684334,
      "lng": 139.758537
    }
  }, {
    "title": "江戶城跡",
    "position": {
      "lat": 35.68803,
      "lng": 139.7547
    }
  }, {
    "title": "吹上大宮御所",
    "position": {
      "lat": 35.68669,
      "lng": 139.748786
    }
  }, {
    "title": "千鳥淵砲台跡",
    "position": {
      "lat": 35.688515,
      "lng": 139.747069
    }
  }, {
    "title": "宮中三殿",
    "position": {
      "lat": 35.682156,
      "lng": 139.749981
    }
  }, {
    "title": "GRANSTA",
    "position": {
      "lat": 35.681631,
      "lng": 139.766895
    }
  }, {
    "title": "日之本帆布",
    "position": {
      "lat": 35.682773,
      "lng": 139.76636
    }
  }, {
    "title": "BAKE Cheese Tart",
    "position": {
      "lat": 0,
      "lng": 0
    }
  }, {
    "title": "銀の鈴",
    "position": {
      "lat": 35.681424,
      "lng": 139.76732
    }
  }, {
    "title": "茅乃舍",
    "position": {
      "lat": 35.686414,
      "lng": 139.774246
    }
  }, {
    "title": "Neustadt Brüder Gransta",
    "position": {
      "lat": 35.681987,
      "lng": 139.765491
    }
  }, {
    "title": "動輪廣場",
    "position": {
      "lat": 35.681476,
      "lng": 139.764959
    }
  }, {
    "title": "東京車站",
    "position": {
      "lat": 35.681437,
      "lng": 139.767062
    }
  }, {
    "title": "東京府廳舍跡",
    "position": {
      "lat": 0,
      "lng": 0
    }
  }, {
    "title": "土佐藩上屋敷跡",
    "position": {
      "lat": 35.67779,
      "lng": 139.764866
    }
  }, {
    "title": "幸運的仔豬",
    "position": {
      "lat": 0,
      "lng": 0
    }
  }, {
    "title": "八重洲中央口",
    "position": {
      "lat": 35.681256,
      "lng": 139.768699
    }
  }, {
    "title": "GALERIE 四季島",
    "position": {
      "lat": 35.680858,
      "lng": 139.768258
    }
  }, {
    "title": "ずんだ茶寮",
    "position": {
      "lat": 35.559394,
      "lng": 139.787284
    }
  }, {
    "title": "江戸川小學",
    "position": {
      "lat": 0,
      "lng": 0
    }
  }, {
    "title": "赤城神社",
    "position": {
      "lat": 35.705115,
      "lng": 139.73604
    }
  }, {
    "title": "新宿歷史博物館",
    "position": {
      "lat": 35.690216,
      "lng": 139.725395
    }
  }, {
    "title": "東京玩具美術館",
    "position": {
      "lat": 35.689957,
      "lng": 139.71806
    }
  }, {
    "title": "東京消防博物館",
    "position": {
      "lat": 35.688441,
      "lng": 139.719864
    }
  }, {
    "title": "四谷須賀神社",
    "position": {
      "lat": 35.685576,
      "lng": 139.72249
    }
  }, {
    "title": "新宿御苑",
    "position": {
      "lat": 35.684802,
      "lng": 139.711007
    }
  }, {
    "title": "新宿中央公園",
    "position": {
      "lat": 35.690322,
      "lng": 139.689591
    }
  }, {
    "title": "戶山公園",
    "position": {
      "lat": 35.707114,
      "lng": 139.705505
    }
  }, {
    "title": "林芙美子紀念館",
    "position": {
      "lat": 35.716154,
      "lng": 139.684315
    }
  }, {
    "title": "おとめ山公園",
    "position": {
      "lat": 35.717992,
      "lng": 139.701629
    }
  }, {
    "title": "明治天皇行幸所木戸舊邸",
    "position": {
      "lat": 35.734597,
      "lng": 139.750025
    }
  }, {
    "title": "富士前公園",
    "position": {
      "lat": 35.732442,
      "lng": 139.750951
    }
  }, {
    "title": "神明公園",
    "position": {
      "lat": 35.731761,
      "lng": 139.754034
    }
  }, {
    "title": "動坂公園",
    "position": {
      "lat": 35.732167,
      "lng": 139.756484
    }
  }, {
    "title": "駒込天祖神社",
    "position": {
      "lat": 35.730676,
      "lng": 139.754761
    }
  }, {
    "title": "六義園",
    "position": {
      "lat": 35.733252,
      "lng": 139.746578
    }
  }, {
    "title": "諏訪山吉祥寺",
    "position": {
      "lat": 35.728173,
      "lng": 139.754783
    }
  }, {
    "title": "德源院",
    "position": {
      "lat": 35.345659,
      "lng": 136.38813
    }
  }, {
    "title": "養源寺",
    "position": {
      "lat": 35.116768,
      "lng": 136.23484
    }
  }, {
    "title": "海藏寺",
    "position": {
      "lat": 35.120148,
      "lng": 135.92614
    }
  }, {
    "title": "蓮久寺",
    "position": {
      "lat": 34.995917,
      "lng": 135.748495
    }
  }, {
    "title": "白山神社",
    "position": {
      "lat": 35.722193,
      "lng": 139.75066
    }
  }, {
    "title": "西信寺",
    "position": {
      "lat": 35.731092,
      "lng": 139.728685
    }
  }, {
    "title": "大塚公園",
    "position": {
      "lat": 0,
      "lng": 0
    }
  }, {
    "title": "大塚坂下町公園",
    "position": {
      "lat": 35.725799,
      "lng": 139.726635
    }
  }, {
    "title": "新大塚公園",
    "position": {
      "lat": 35.717726,
      "lng": 139.733535
    }
  }, {
    "title": "関口三丁目公園",
    "position": {
      "lat": 35.713222,
      "lng": 139.729361
    }
  }, {
    "title": "講談社野間紀念館",
    "position": {
      "lat": 35.714233,
      "lng": 139.725007
    }
  }, {
    "title": "椿山莊庭園",
    "position": {
      "lat": 35.712491,
      "lng": 139.726123
    }
  }, {
    "title": "関口芭蕉庵",
    "position": {
      "lat": 35.712587,
      "lng": 139.72357
    }
  }, {
    "title": "永青文庫",
    "position": {
      "lat": 35.713476,
      "lng": 139.723248
    }
  }, {
    "title": "白玉稲荷神社",
    "position": {
      "lat": 35.71237,
      "lng": 139.724584
    }
  }, {
    "title": "目白台",
    "position": {
      "lat": 0,
      "lng": 0
    }
  }, {
    "title": "大井玄洞翁胸像",
    "position": {
      "lat": 35.71107,
      "lng": 139.730923
    }
  }, {
    "title": "小日向公園",
    "position": {
      "lat": 35.712363,
      "lng": 139.736969
    }
  }, {
    "title": "印刷博物館",
    "position": {
      "lat": 35.709454,
      "lng": 139.741538
    }
  }, {
    "title": "切支丹屋敷跡",
    "position": {
      "lat": 35.713692,
      "lng": 139.738333
    }
  }, {
    "title": "播磨坂",
    "position": {
      "lat": 35.717037,
      "lng": 139.742308
    }
  }, {
    "title": "小石川諏訪神社",
    "position": {
      "lat": 35.707071,
      "lng": 139.745381
    }
  }, {
    "title": "後樂公園",
    "position": {
      "lat": 35.705091,
      "lng": 139.747681
    }
  }, {
    "title": "上屋敷跡",
    "position": {
      "lat": 35.702442,
      "lng": 139.750728
    }
  }, {
    "title": "清和公園",
    "position": {
      "lat": 35.710421,
      "lng": 139.754455
    }
  }, {
    "title": "樋口一葉菊坂舊居跡",
    "position": {
      "lat": 35.7099,
      "lng": 139.755838
    }
  }, {
    "title": "東京大學綜合研究博物館",
    "position": {
      "lat": 35.708849,
      "lng": 139.761172
    }
  }, {
    "title": "戰爭博物館",
    "position": {
      "lat": 0,
      "lng": 0
    }
  }, {
    "title": "文京故鄉歷史館",
    "position": {
      "lat": 35.708213,
      "lng": 139.756629
    }
  }, {
    "title": "元町公園",
    "position": {
      "lat": 35.702594,
      "lng": 139.758039
    }
  }, {
    "title": "水道歷史館",
    "position": {
      "lat": 35.703561,
      "lng": 139.760475
    }
  }, {
    "title": "神田上水樋跡",
    "position": {
      "lat": 35.702163,
      "lng": 139.757022
    }
  }, {
    "title": "孔子像",
    "position": {
      "lat": 35.700372,
      "lng": 139.766472
    }
  }, {
    "title": "湯島聖堂",
    "position": {
      "lat": 35.701069,
      "lng": 139.766418
    }
  }, {
    "title": "大長坂",
    "position": {
      "lat": 35.703573,
      "lng": 139.767377
    }
  }, {
    "title": "舊岩崎邸庭園",
    "position": {
      "lat": 35.71003,
      "lng": 139.767226
    }
  }, {
    "title": "三四郎池",
    "position": {
      "lat": 35.712293,
      "lng": 139.762036
    }
  }, {
    "title": "東京大學",
    "position": {
      "lat": 35.712921,
      "lng": 139.761925
    }
  }, {
    "title": "彌生美術館",
    "position": {
      "lat": 35.715047,
      "lng": 139.763416
    }
  }, {
    "title": "氣象台跡地",
    "position": {
      "lat": 0,
      "lng": 0
    }
  }, {
    "title": "舊伊勢屋質店",
    "position": {
      "lat": 35.711017,
      "lng": 139.755513
    }
  }, {
    "title": "西教寺",
    "position": {
      "lat": 35.71762,
      "lng": 139.758977
    }
  }, {
    "title": "夏目漱石",
    "position": {
      "lat": 35.722088,
      "lng": 139.758257
    }
  }, {
    "title": "島菌邸",
    "position": {
      "lat": 0,
      "lng": 0
    }
  }, {
    "title": "小石川植物園",
    "position": {
      "lat": 35.7197,
      "lng": 139.746406
    }
  }, {
    "title": "善仁寺",
    "position": {
      "lat": 35.711458,
      "lng": 139.737393
    }
  }, {
    "title": "慈照院",
    "position": {
      "lat": 35.720846,
      "lng": 139.744987
    }
  }, {
    "title": "法傳寺",
    "position": {
      "lat": 35.738914,
      "lng": 139.747234
    }
  }, {
    "title": "念速寺",
    "position": {
      "lat": 35.715692,
      "lng": 139.748021
    }
  }, {
    "title": "真珠院",
    "position": {
      "lat": 35.713518,
      "lng": 139.745321
    }
  }, {
    "title": "舊磯野家",
    "position": {
      "lat": 35.719264,
      "lng": 139.738284
    }
  }]
}